[
  {
    "propertyId": "1",
    "title": "Luxury Penthouse",
    "category": "Penthouse",
    "location": "City Center",
    "address": {
      "street": "1 Main St",
      "city": "Metropolis",
      "state": "NY",
      "zip": "10001"
    },
    "pricePerDay": 500,
    "squareFeet": 3000,
    "bedrooms": 3,
    "bathrooms": 3,
    "masterRoom": 1,
    "childRoom": 2,
    "amenities": [
      "Swimming Pool",
      "Gym"
    ],
    "numberOfBalconies": 2,
    "kitchen": 1,
    "features": ["City View", "Modern Amenities"],
    "host": {
      "hostName": "Clark Kent",
      "phone": "+1-555-123-4567",
      "email": "clark.kent@example.com",
      "rating": 4.9
    },
    "images": [
      "https://i.postimg.cc/vH85pqCm/house.jpg",
      "https://i.postimg.cc/vH85pqCm/house.jpg"
    ],
    "availableDates": [
      "2024-10-01",
      "2024-10-05",
      "2024-10-10"
    ]
  },
  {
    "propertyId": "2",
    "title": "Cozy Cottage",
    "category": "Cottage",
    "location": "Rural Area",
    "address": {
      "street": "10 Countryside Rd",
      "city": "Green Valley",
      "state": "CA",
      "zip": "90210"
    },
    "pricePerDay": 150,
    "squareFeet": 1200,
    "bedrooms": 2,
    "bathrooms": 1,
    "masterRoom": 1,
    "childRoom": 1,
    "amenities": [
      "Fireplace",
      "Garden"
    ],
    "numberOfBalconies": 1,
    "kitchen": 1,
    "features": ["Secluded", "Rustic"],
    "host": {
      "hostName": "Diana Prince",
      "phone": "+1-555-987-6543",
      "email": "diana.prince@example.com",
      "rating": 4.8
    },
    "images": [
      "https://i.postimg.cc/vH85pqCm/house.jpg",
      "https://i.postimg.cc/vH85pqCm/house.jpg"
    ],
    "availableDates": [
      "2024-10-01",
      "2024-10-10",
      "2024-10-20"
    ]
  },
  {
    "propertyId": "3",
    "title": "Spacious Family Home",
    "category": "House",
    "location": "Suburban Area",
    "address": {
      "street": "20 Family Ln",
      "city": "Family Town",
      "state": "TX",
      "zip": "75001"
    },
    "pricePerDay": 250,
    "squareFeet": 2500,
    "bedrooms": 4,
    "bathrooms": 3,
    "masterRoom": 2,
    "childRoom": 2,
    "amenities": [
      "Backyard",
      "Playground"
    ],
    "numberOfBalconies": 1,
    "kitchen": 1,
    "features": ["Family-Friendly", "Spacious"],
    "host": {
      "hostName": "Bruce Wayne",
      "phone": "+1-555-555-5555",
      "email": "bruce.wayne@example.com",
      "rating": 4.6
    },
    "images": [
      "https://i.postimg.cc/vH85pqCm/house.jpg",
      "https://i.postimg.cc/vH85pqCm/house.jpg"
    ],
    "availableDates": [
      "2024-10-01",
      "2024-10-15",
      "2024-10-30"
    ]
  },
  {
    "propertyId": "4",
    "title": "Beachfront Villa",
    "category": "Villa",
    "location": "Coastal City",
    "address": {
      "street": "5 Ocean View Dr",
      "city": "Beach City",
      "state": "FL",
      "zip": "32101"
    },
    "pricePerDay": 800,
    "squareFeet": 4000,
    "bedrooms": 5,
    "bathrooms": 4,
    "masterRoom": 3,
    "childRoom": 2,
    "amenities": [
      "Private Beach",
      "Infinity Pool"
    ],
    "numberOfBalconies": 2,
    "kitchen": 2,
    "features": ["Luxurious", "Stunning Views"],
    "host": {
      "hostName": "Wade Wilson",
      "phone": "+1-555-222-1111",
      "email": "wade.wilson@example.com",
      "rating": 4.7
    },
    "images": [
      "https://i.postimg.cc/vH85pqCm/house.jpg",
      "https://i.postimg.cc/vH85pqCm/house.jpg"
    ],
    "availableDates": [
      "2024-10-01",
      "2024-10-10",
      "2024-10-20"
    ]
  },
  {
    "propertyId": "5",
    "title": "Modern Apartment",
    "category": "Apartment",
    "location": "City Center",
    "address": {
      "street": "15 Urban St",
      "city": "Metro City",
      "state": "NY",
      "zip": "10002"
    },
    "pricePerDay": 300,
    "squareFeet": 1800,
    "bedrooms": 2,
    "bathrooms": 2,
    "masterRoom": 1,
    "childRoom": 1,
    "amenities": [
      "Gym",
      "Rooftop Deck"
    ],
    "numberOfBalconies": 1,
    "kitchen": 1,
    "features": ["Modern", "Central Location"],
    "host": {
      "hostName": "Tony Stark",
      "phone": "+1-555-000-0000",
      "email": "tony.stark@example.com",
      "rating": 4.8
    },
    "images": [
      "https://i.postimg.cc/vH85pqCm/house.jpg",
      "https://i.postimg.cc/vH85pqCm/house.jpg"
    ],
    "availableDates": [
      "2024-10-05",
      "2024-10-15",
      "2024-10-30"
    ]
  },
  {
    "propertyId": "6",
    "title": "Rustic Lodge",
    "category": "Cabin",
    "location": "Mountain Area",
    "address": {
      "street": "40 Alpine Rd",
      "city": "Snowtown",
      "state": "CO",
      "zip": "80201"
    },
    "pricePerDay": 200,
    "squareFeet": 2200,
    "bedrooms": 3,
    "bathrooms": 2,
    "masterRoom": 1,
    "childRoom": 1,
    "amenities": [
      "Fire Pit",
      "Hiking Trails"
    ],
    "numberOfBalconies": 1,
    "kitchen": 1,
    "features": ["Secluded", "Nature"],
    "host": {
      "hostName": "Natasha Romanoff",
      "phone": "+1-555-777-8888",
      "email": "natasha.romanoff@example.com",
      "rating": 4.5
    },
    "images": [
      "https://i.postimg.cc/vH85pqCm/house.jpg",
      "https://i.postimg.cc/vH85pqCm/house.jpg"
    ],
    "availableDates": [
      "2024-10-01",
      "2024-10-10",
      "2024-10-20"
    ]
  },
  {
    "propertyId": "7",
    "title": "Charming Bungalow",
    "category": "Bungalow",
    "location": "Countryside",
    "address": {
      "street": "25 Green Rd",
      "city": "Lush Valley",
      "state": "CA",
      "zip": "90003"
    },
    "pricePerDay": 175,
    "squareFeet": 1400,
    "bedrooms": 2,
    "bathrooms": 1,
    "masterRoom": 1,
    "childRoom": 1,
    "amenities": [
      "Garden",
      "BBQ Grill"
    ],
    "numberOfBalconies": 1,
    "kitchen": 1,
    "features": ["Peaceful", "Cozy"],
    "host": {
      "hostName": "Steve Rogers",
      "phone": "+1-555-333-4444",
      "email": "steve.rogers@example.com",
      "rating": 4.4
    },
    "images": [
      "https://i.postimg.cc/vH85pqCm/house.jpg",
      "https://i.postimg.cc/vH85pqCm/house.jpg"
    ],
    "availableDates": [
      "2024-10-01",
      "2024-10-05",
      "2024-10-15"
    ]
  },
  {
    "propertyId": "8",
    "title": "Luxury Villa",
    "category": "Villa",
    "location": "Seaside",
    "address": {
      "street": "7 Ocean Breeze Ave",
      "city": "Sunny Beach",
      "state": "CA",
      "zip": "92005"
    },
    "pricePerDay": 700,
    "squareFeet": 3500,
    "bedrooms": 4,
    "bathrooms": 4,
    "masterRoom": 2,
    "childRoom": 2,
    "amenities": [
      "Private Pool",
      "Ocean View"
    ],
    "numberOfBalconies": 3,
    "kitchen": 1,
    "features": ["Luxurious", "Relaxing"],
    "host": {
      "hostName": "Thor Odinson",
      "phone": "+1-555-888-2222",
      "email": "thor.odinson@example.com",
      "rating": 4.9
    },
    "images": [
      "https://i.postimg.cc/vH85pqCm/house.jpg",
      "https://i.postimg.cc/vH85pqCm/house.jpg"
    ],
    "availableDates": [
      "2024-10-01",
      "2024-10-05",
      "2024-10-15"
    ]
  },
  {
    "propertyId": "9",
    "title": "Elegant Studio",
    "category": "Studio",
    "location": "Downtown",
    "address": {
      "street": "30 City Plaza",
      "city": "Urban City",
      "state": "NY",
      "zip": "10003"
    },
    "pricePerDay": 250,
    "squareFeet": 900,
    "bedrooms": 1,
    "bathrooms": 1,
    "masterRoom": 1,
    "childRoom": 0,
    "amenities": [
      "WiFi",
      "Laundry"
    ],
    "numberOfBalconies": 1,
    "kitchen": 1,
    "features": ["Modern", "Central"],
    "host": {
      "hostName": "Peter Parker",
      "phone": "+1-555-444-5555",
      "email": "peter.parker@example.com",
      "rating": 4.6
    },
    "images": [
      "https://i.postimg.cc/vH85pqCm/house.jpg",
      "https://i.postimg.cc/vH85pqCm/house.jpg"
    ],
    "availableDates": [
      "2024-10-01",
      "2024-10-05",
      "2024-10-10"
    ]
  },
  {
    "propertyId": "10",
    "title": "Sunny Apartment",
    "category": "Apartment",
    "location": "Uptown",
    "address": {
      "street": "9 Bright St",
      "city": "Sunny City",
      "state": "CA",
      "zip": "90004"
    },
    "pricePerDay": 300,
    "squareFeet": 1300,
    "bedrooms": 2,
    "bathrooms": 1,
    "masterRoom": 1,
    "childRoom": 1,
    "amenities": [
      "Balcony",
      "Parking"
    ],
    "numberOfBalconies": 1,
    "kitchen": 1,
    "features": ["Bright", "Modern"],
    "host": {
      "hostName": "Tony Stark",
      "phone": "+1-555-333-2222",
      "email": "tony.stark@example.com",
      "rating": 4.7
    },
    "images": [
      "https://i.postimg.cc/vH85pqCm/house.jpg",
      "https://i.postimg.cc/vH85pqCm/house.jpg"
    ],
    "availableDates": [
      "2024-10-01",
      "2024-10-15",
      "2024-10-20"
    ]
  },
  {
    "propertyId": "11",
    "title": "Grand Mansion",
    "category": "Mansion",
    "location": "Suburban Area",
    "address": {
      "street": "8 Rich St",
      "city": "Opulent City",
      "state": "CA",
      "zip": "90211"
    },
    "pricePerDay": 1200,
    "squareFeet": 6000,
    "bedrooms": 6,
    "bathrooms": 5,
    "masterRoom": 3,
    "childRoom": 2,
    "amenities": [
      "Pool",
      "Tennis Court"
    ],
    "numberOfBalconies": 4,
    "kitchen": 2,
    "features": ["Luxury", "Spacious"],
    "host": {
      "hostName": "Lex Luthor",
      "phone": "+1-555-999-8888",
      "email": "lex.luthor@example.com",
      "rating": 4.9
    },
    "images": [
      "https://i.postimg.cc/vH85pqCm/house.jpg",
      "https://i.postimg.cc/vH85pqCm/house.jpg"
    ],
    "availableDates": [
      "2024-10-05",
      "2024-10-15",
      "2024-10-20"
    ]
  },
  {
    "propertyId": "12",
    "title": "Chic Loft",
    "category": "Loft",
    "location": "Art District",
    "address": {
      "street": "35 Artsy Blvd",
      "city": "Art City",
      "state": "IL",
      "zip": "60001"
    },
    "pricePerDay": 350,
    "squareFeet": 2000,
    "bedrooms": 2,
    "bathrooms": 2,
    "masterRoom": 1,
    "childRoom": 1,
    "amenities": [
      "WiFi",
      "Gallery"
    ],
    "numberOfBalconies": 2,
    "kitchen": 1,
    "features": ["Stylish", "Cultural"],
    "host": {
      "hostName": "Natasha Romanoff",
      "phone": "+1-555-666-4444",
      "email": "natasha.romanoff@example.com",
      "rating": 4.5
    },
    "images": [
      "https://i.postimg.cc/vH85pqCm/house.jpg",
      "https://i.postimg.cc/vH85pqCm/house.jpg"
    ],
    "availableDates": [
      "2024-10-01",
      "2024-10-10",
      "2024-10-20"
    ]
  },
  {
    "propertyId": "13",
    "title": "Mountain Cabin",
    "category": "Cabin",
    "location": "Mountain Area",
    "address": {
      "street": "15 Snowy Rd",
      "city": "Wintertown",
      "state": "CO",
      "zip": "80202"
    },
    "pricePerDay": 250,
    "squareFeet": 1600,
    "bedrooms": 3,
    "bathrooms": 2,
    "masterRoom": 1,
    "childRoom": 2,
    "amenities": [
      "Fireplace",
      "Ski Access"
    ],
    "numberOfBalconies": 1,
    "kitchen": 1,
    "features": ["Cozy", "Scenic Views"],
    "host": {
      "hostName": "Clint Barton",
      "phone": "+1-555-777-9999",
      "email": "clint.barton@example.com",
      "rating": 4.4
    },
    "images": [
      "https://i.postimg.cc/vH85pqCm/house.jpg",
      "https://i.postimg.cc/vH85pqCm/house.jpg"
    ],
    "availableDates": [
      "2024-10-05",
      "2024-10-15",
      "2024-10-25"
    ]
  },
  {
    "propertyId": "14",
    "title": "Elegant Apartment",
    "category": "Apartment",
    "location": "Downtown",
    "address": {
      "street": "12 Elegant Rd",
      "city": "Downtown City",
      "state": "NY",
      "zip": "10004"
    },
    "pricePerDay": 400,
    "squareFeet": 1400,
    "bedrooms": 2,
    "bathrooms": 2,
    "masterRoom": 1,
    "childRoom": 1,
    "amenities": [
      "WiFi",
      "Gym"
    ],
    "numberOfBalconies": 2,
    "kitchen": 1,
    "features": ["Chic", "Central Location"],
    "host": {
      "hostName": "Vision",
      "phone": "+1-555-123-4567",
      "email": "vision@example.com",
      "rating": 4.6
    },
    "images": [
      "https://i.postimg.cc/vH85pqCm/house.jpg",
      "https://i.postimg.cc/vH85pqCm/house.jpg"
    ],
    "availableDates": [
      "2024-10-01",
      "2024-10-10",
      "2024-10-20"
    ]
  },
  {
    "propertyId": "15",
    "title": "Luxury Retreat",
    "category": "Retreat",
    "location": "Forest Area",
    "address": {
      "street": "17 Peaceful Rd",
      "city": "Calm Town",
      "state": "OR",
      "zip": "97001"
    },
    "pricePerDay": 600,
    "squareFeet": 3500,
    "bedrooms": 4,
    "bathrooms": 4,
    "masterRoom": 2,
    "childRoom": 2,
    "amenities": [
      "Hot Tub",
      "Yoga Studio"
    ],
    "numberOfBalconies": 2,
    "kitchen": 1,
    "features": ["Relaxing", "Nature"],
    "host": {
      "hostName": "Gamora",
      "phone": "+1-555-555-0000",
      "email": "gamora@example.com",
      "rating": 4.9
    },
    "images": [
      "https://i.postimg.cc/vH85pqCm/house.jpg",
      "https://i.postimg.cc/vH85pqCm/house.jpg"
    ],
    "availableDates": [
      "2024-10-01",
      "2024-10-15",
      "2024-10-30"
    ]
  },
  {
    "propertyId": "16",
    "title": "Historical Mansion",
    "category": "Mansion",
    "location": "Historic District",
    "address": {
      "street": "22 Old Town Rd",
      "city": "Heritage City",
      "state": "MA",
      "zip": "02101"
    },
    "pricePerDay": 1100,
    "squareFeet": 5500,
    "bedrooms": 5,
    "bathrooms": 5,
    "masterRoom": 2,
    "childRoom": 2,
    "amenities": [
      "Gardens",
      "Library"
    ],
    "numberOfBalconies": 3,
    "kitchen": 2,
    "features": ["Classic", "Charming"],
    "host": {
      "hostName": "Tony Stark",
      "phone": "+1-555-777-2222",
      "email": "tony.stark@example.com",
      "rating": 4.8
    },
    "images": [
      "https://i.postimg.cc/vH85pqCm/house.jpg",
      "https://i.postimg.cc/vH85pqCm/house.jpg"
    ],
    "availableDates": [
      "2024-10-01",
      "2024-10-05",
      "2024-10-10"
    ]
  },
  {
    "propertyId": "17",
    "title": "Charming Townhouse",
    "category": "Townhouse",
    "location": "Suburban Area",
    "address": {
      "street": "5 Cozy Lane",
      "city": "Neighborhood",
      "state": "CA",
      "zip": "90212"
    },
    "pricePerDay": 350,
    "squareFeet": 2000,
    "bedrooms": 3,
    "bathrooms": 2,
    "masterRoom": 1,
    "childRoom": 1,
    "amenities": [
      "Parking",
      "Backyard"
    ],
    "numberOfBalconies": 1,
    "kitchen": 1,
    "features": ["Family-Friendly", "Comfortable"],
    "host": {
      "hostName": "Peter Parker",
      "phone": "+1-555-222-8888",
      "email": "peter.parker@example.com",
      "rating": 4.5
    },
    "images": [
      "https://i.postimg.cc/vH85pqCm/house.jpg",
      "https://i.postimg.cc/vH85pqCm/house.jpg"
    ],
    "availableDates": [
      "2024-10-01",
      "2024-10-05",
      "2024-10-10"
    ]
  },
  {
    "propertyId": "18",
    "title": "Urban Loft",
    "category": "Loft",
    "location": "City Center",
    "address": {
      "street": "22 Urban St",
      "city": "Metropolis",
      "state": "NY",
      "zip": "10005"
    },
    "pricePerDay": 450,
    "squareFeet": 1800,
    "bedrooms": 2,
    "bathrooms": 2,
    "masterRoom": 1,
    "childRoom": 1,
    "amenities": [
      "WiFi",
      "Parking"
    ],
    "numberOfBalconies": 2,
    "kitchen": 1,
    "features": ["Modern", "City Views"],
    "host": {
      "hostName": "Natasha Romanoff",
      "phone": "+1-555-333-4444",
      "email": "natasha.romanoff@example.com",
      "rating": 4.6
    },
    "images": [
      "https://i.postimg.cc/vH85pqCm/house.jpg",
      "https://i.postimg.cc/vH85pqCm/house.jpg"
    ],
    "availableDates": [
      "2024-10-01",
      "2024-10-10",
      "2024-10-20"
    ]
  },
  {
    "propertyId": "19",
    "title": "Rustic Farmhouse",
    "category": "Farmhouse",
    "location": "Rural Area",
    "address": {
      "street": "10 Farm Rd",
      "city": "Farm City",
      "state": "TX",
      "zip": "75002"
    },
    "pricePerDay": 300,
    "squareFeet": 2200,
    "bedrooms": 4,
    "bathrooms": 3,
    "masterRoom": 2,
    "childRoom": 2,
    "amenities": [
      "Fire Pit",
      "Fenced Yard"
    ],
    "numberOfBalconies": 1,
    "kitchen": 1,
    "features": ["Rustic", "Family-Friendly"],
    "host": {
      "hostName": "Thor Odinson",
      "phone": "+1-555-555-1111",
      "email": "thor.odinson@example.com",
      "rating": 4.7
    },
    "images": [
      "https://i.postimg.cc/vH85pqCm/house.jpg",
      "https://i.postimg.cc/vH85pqCm/house.jpg"
    ],
    "availableDates": [
      "2024-10-05",
      "2024-10-10",
      "2024-10-20"
    ]
  },
  {
    "propertyId": "20",
    "title": "Sleek City Apartment",
    "category": "Apartment",
    "location": "Urban Area",
    "address": {
      "street": "5 High St",
      "city": "Metro City",
      "state": "NY",
      "zip": "10006"
    },
    "pricePerDay": 350,
    "squareFeet": 1600,
    "bedrooms": 2,
    "bathrooms": 2,
    "masterRoom": 1,
    "childRoom": 1,
    "amenities": [
      "Rooftop Access",
      "Gym"
    ],
    "numberOfBalconies": 1,
    "kitchen": 1,
    "features": ["Sleek", "Modern"],
    "host": {
      "hostName": "Bruce Wayne",
      "phone": "+1-555-999-2222",
      "email": "bruce.wayne@example.com",
      "rating": 4.8
    },
    "images": [
      "https://i.postimg.cc/vH85pqCm/house.jpg",
      "https://i.postimg.cc/vH85pqCm/house.jpg"
    ],
    "availableDates": [
      "2024-10-01",
      "2024-10-05",
      "2024-10-10"
    ]
  }
]
